Id,Status,Name,Owner_Type,Owner_Name,Design,Voltage,Label,FL,Op_Area,Category,Status_act,Latitude,Longitude
101991104,Existing,SSU SUSTIO 33KV,TNB,DISTRIBUTION,SSU SINGLE BUS + BUS SECTION 33 kV,33 kV,SUST,PNTL/SSU/G00014,NIBONG TEBAL,SSU,Update,5.215880472,100.4313036
101991636,Existing,SSU DEXCOM 33KV,TNB,DISTRIBUTION,SSU SINGLE BUS + BUS SECTION 33 kV,33 kV,DEXC,PNTL/SSU/G00013,NIBONG TEBAL,SSU,Insert,5.229270642,100.4397773
102008659,Existing,SSU SUNWAY CARNIVAL 33KV,TNB,DISTRIBUTION,SSU SINGLE BUS + BUS SECTION 33 kV,33 kV,SUCA,PBUT/SSU/G00027,SEBERANG JAYA,SSU,Insert,5.400584998,100.398283
105636773,Existing,D-PZK-S20-0585,TNB,DISTRIBUTION,PPU Mini,,ECON,KBLG/PPU/G00004,BALING,PPU,Insert,5.656777838,100.8698009
105706481,Existing,,TNB,DISTRIBUTION,PMU 132/33kV (DOUBLE BUS),,BKHM33,,JITRA,PMU,Update,6.480072418,100.4158219
108208800,Existing,PMU KUALA KETIL 132/33kV,TNB,DISTRIBUTION,PMU 132/33kV (DOUBLE BUS),132/33/11,KKTL33,KKLM/PMU/G00001,KULIM,PMU,Insert,5.591510466,100.6359508
108282075,Existing,PMU SPID 132/33/11KV,TNB,DISTRIBUTION,PMU 132/33kV (DOUBLE BUS),132/33/11,SPID33,KSGP/PMU/G00004,SUNGAI PETANI,PMU,Insert,5.660164969,100.534473
108285122,Existing,PMU TMN INTAN 132/33/11KV,TNB,DISTRIBUTION,PMU 132/11 kV,132/33 kV,INTN211,KSGP/PMU/G00008,SUNGAI PETANI,PMU,Update,5.636256948,100.477044
109242401,Existing,PMU ULU MELAKA,TNB,DISTRIBUTION,PPU 33/11kV,132/33 & 132/11,UMKA33,KLGK/PMU/G00002,LANGKAWI,PMU,Update,6.367402825,99.77887264
109549773,Existing,,TNB,DISTRIBUTION,PMU 132/11 kV,,UMKA11,,LANGKAWI,PMU,Update,6.367452229,99.77898778
112610500,Existing,SSU ZXT RUIFENG,TNB,DISTRIBUTION,SSU SINGLE BUS + BUS SECTION 33 kV,,RFNG,KGCM/SSU/G00004,GUAR CHEMPEDAK,SSU,Insert,5.824312059,100.5088327
114692740,Existing,SSU JABIL CIRCUIT NO.2 33kV,TNB,DISTRIBUTION,SSU SINGLE BUS + BUS SECTION 33 kV,33 kV,JBIL2,PNTL/SSU/G00011,NIBONG TEBAL,SSU,Insert,5.215261177,100.4343607
115963764,Existing,SSU TUDM 33KV,TNB,DISTRIBUTION,SSU SINGLE BUS + BUS SECTION 33 kV,33 kV,PTUDM,PBUT/SSU/G00008,SEBERANG JAYA,SSU,Insert,5.462206015,100.3831239
130559367,Existing,SSU ROBERT BOSCH SEMICONDUCTOR PENANG (M,TNB,DISTRIBUTION,SSU SINGLE BUS + BUS SECTION 33 kV,,ROBO,PNTL/SSU/G00015,NIBONG TEBAL,SSU,Update,5.224731233,100.4363314
130752300,Existing,SSU XSD PAPER,TNB,DISTRIBUTION,SSU SINGLE BUS + BUS SECTION 33 kV,,XSDP,KKLM/SSU/G00004,KULIM,SSU,Update,5.492280182,100.6103772
131758714,Existing,,TNB,DISTRIBUTION,PPU 33/11kV (Cable Tie),,KPSRI,,KULIM,PPU,Insert,5.515320333,100.5411169
160639260,Existing,SSU VAT MANUFACTURING MALAYSIA 33kV,TNB,DISTRIBUTION,SSU SINGLE BUS + BUS SECTION 33 kV,33 kV,VATBK,PNTL/SSU/G00018,NIBONG TEBAL,SSU,Update,5.216905856,100.42932
164739310,Existing,PPU TAMAN SELASIH,TNB,DISTRIBUTION,PPU 33/11kV (SINGLE BUS),33/11 kV,TSIH,KKLM/PPU/G00004,KULIM,PPU,Update,5.375555558,100.5393611
201294132,Existing,SSU VENTURE ELECTRONIC 33KV,TNB,DISTRIBUTION,SSU SINGLE BUS + BUS SECTION 33 kV,33 kV,VENT,PNTL/SSU/G00019,NIBONG TEBAL,SSU,Insert,5.218476299,100.4405451
201367130,Existing,SSU TTM PENANG SCIENCE PARK 33KV,TNB,DISTRIBUTION,SSU SINGLE BUS + BUS SECTION 33 kV,33 kV,TTMT,PNTL/SSU/G00016,SEBERANG JAYA,SSU,Insert,5.304327303,100.4375871
203458308,Existing,SSU TF AMD MICROELECTRONICS (PENANG) SDN,TNB,DISTRIBUTION,SSU SINGLE BUS + BUS SECTION 33 kV,,AMD3,PNTL/SSU/G00017,NIBONG TEBAL,SSU,Insert,5.220957004,100.428216
206074152,Existing,PPU SIK,TNB,DISTRIBUTION,PPU 33/11kV (Cable Tie),33/11 kV,SIK,KSIK/PPU/G00001,SIK,PPU,Insert,5.836589772,100.7489758
215616219,Existing,PPU TENGKU KUDIN 33/11KV,TNB,DISTRIBUTION,PPU 33/11kV (SINGLE BUS),33/11 kV,TKDN,PPPG/PPU/G00014,PULAU PINANG,PPU,Insert,5.380318241,100.3136861
288964730,Existing,PPU PRIMA PENGKALAN KUNDOR,TNB,DISTRIBUTION,PPU 33/11kV (Cable Tie),33/11 kV,PRMA,KALS/PPU/G00018,ALOR SETAR,PPU,Insert,6.040547789,100.3780426
290859189,Existing,,TNB,DISTRIBUTION,GIS PMU 132/33kV (SINGLE BUS),,KERC,,KUALA NERANG,PMU,Insert,6.348779401,100.6451537
291073084,Existing,PPU JALAN SONG BAN KHENG 33/11KV,TNB,DISTRIBUTION,PPU 33/11kV (Cable Tie),33/11 kV,JSBK,PBUT/PPU/G00036,SEBERANG JAYA,PPU,Insert,5.349891016,100.4568044
291085966,Existing,,TNB,DISTRIBUTION,PPU 33/11kV (Cable Tie),,MRBG(M),,ALOR SETAR,PPU,Update,6.119842249,100.3450027
292460046,Existing,MOBILE PPU SIMPANG AMPAT 33/11KV,TNB,DISTRIBUTION,PPU 33/11kV (Cable Tie),33/11 kV,SPG4,PNTL/PPU/G00009,NIBONG TEBAL,PPU,Insert,5.275459425,100.4545366
293203394,Existing,SSU BOSTON SCIENTIFIC 33KV,TNB,DISTRIBUTION,GIS SSU SINGLE BUS + BUS SECTION 33 kV,33 kV,BSTN,PNTL/SSU/G00020,NIBONG TEBAL,SSU,Insert,5.228957587,100.4535453
293267318,Existing,SSU TUMPUAN AZAM 33KV,TNB,DISTRIBUTION,GIS SSU SINGLE BUS + BUS SECTION 33 kV,33 kV,AZAM,PPPG/SSU/G00029,PULAU PINANG,SSU,Insert,5.369193984,100.3161133
296985922,Existing,SSU ASE NO.2  33KV,TNB,DISTRIBUTION,GIS SSU SINGLE BUS + BUS SECTION 33 kV,33 kV,ASE2,PBYB/SSU/G00005,PULAU PINANG,SSU,Insert,5.310167178,100.2939159
296994510,Existing,SSU ELNA PCB 33KV,TNB,DISTRIBUTION,GIS SSU SINGLE BUS + BUS SECTION 33 kV,33 kV,ELNA,PBUT/SSU/G00028,SEBERANG JAYA,SSU,Update,5.355875246,100.3874848
297007392,Existing,PMU DATO KERAMAT 132/33KV,TNB,DISTRIBUTION,GIS PMU 132/33kV (SINGLE BUS),132/33 kV,DKMT,PPPG/PMU/G00010,PULAU PINANG,PMU,Insert,5.412230875,100.311881
297012021,Existing,SSU CRIMSON OMEGA 33KV,TNB,DISTRIBUTION,GIS SSU SINGLE BUS + BUS SECTION 33 kV,33 kV,CSON,PPPG/SSU/G00028,PULAU PINANG,SSU,Insert,5.399180356,100.2864272
297179250,Existing,,TNB,DISTRIBUTION,PPU 33/11kV (Cable Tie),,MUMBK,,SUNGAI PETANI,PPU,Insert,5.715116702,100.4484115
46847540,Existing,PPU NAKA,TNB,DISTRIBUTION,PPU 33/11kV (Cable Tie),33/11 kV,NK33,KKNG/PPU/G00002,KUALA NERANG,PPU,Insert,6.140076234,100.6601303
46848146,Existing,PPU PEDU,TNB,DISTRIBUTION,PPU 33/11kV (Cable Tie),33/11KV,PEDU,KKNG/PPU/G00003,KUALA NERANG,PPU,Insert,6.209837943,100.7463533
46848362,Existing,PPU BAKAR ARANG,TNB,DISTRIBUTION,PPU 33/11kV (DOUBLE BUS),33/11 kV,KBARG,KSGP/PPU/G00001,SUNGAI PETANI,PPU,Insert,5.62071542,100.487837
46849895,Existing,PPU GURUN INDUSTRI 33/11KV,TNB,DISTRIBUTION,PPU 33/11kV (SINGLE BUS),33/11 kV,GIND,KGCM/PPU/G00001,GUAR CHEMPEDAK,PPU,Insert,5.821925646,100.4929863
46850811,Existing,SSU 33KV NAZA,TNB,DISTRIBUTION,SSU DOUBLE BUS 33 kV,33 kV,NAZA,KGCM/SSU/G00001,GUAR CHEMPEDAK,SSU,Insert,5.830150002,100.494483
46851073,Existing,SSU AIMST,TNB,DISTRIBUTION,SSU DOUBLE BUS 33 kV,33 kV,AMST,KSGP/SSU/G00001,SUNGAI PETANI,SSU,Update,5.719904612,100.4833315
46851335,Existing,SSU NPK,TNB,DISTRIBUTION,SSU DOUBLE BUS 33 kV,33 kV,NPK,KGCM/SSU/G00002,GUAR CHEMPEDAK,SSU,Insert,5.838747409,100.493342
46851597,Existing,SSU INOKOM,TNB,DISTRIBUTION,PPU 33/11kV,33 kV,INKM,KKLM/SSU/G00001,KULIM,SSU,Insert,5.484022897,100.6002704
46865677,Existing,SSU ALION NATION 33KV,TNB,DISTRIBUTION,SSU SINGLE BUS + BUS SECTION 33 kV,33 kV,ALNA,PBUT/SSU/G00025,SEBERANG JAYA,SSU,Insert,5.357179896,100.3899944
46924943,Existing,SSU GUTHRIE,TNB,DISTRIBUTION,PMU 132/33/11 kV (SINGLE BUS),33 kV,SGTH,KKLM/SSU/G00002,KULIM,SSU,Insert,5.489418976,100.6000759
46925180,Existing,SSU RENESAS,TNB,DISTRIBUTION,SSU DOUBLE BUS 33 kV,33 kV,RENA,KKLM/SSU/G00003,KULIM,SSU,Insert,5.411310003,100.55779
46925565,Existing,PPU KEMELONG,TNB,DISTRIBUTION,PPU 33/11kV (SINGLE BUS),33/11 kV,KMLG,KSIK/PPU/G00002,SIK,PPU,Update,5.905108499,100.6460374
46925847,Existing,PPU AMAN CENTRAL,TNB,DISTRIBUTION,PPU 33/11kV (Cable Tie),33/11 kV,AMTL,KALS/PPU/G00013,ALOR SETAR,PPU,Insert,6.125228997,100.36618
47677893,Existing,PMU CHUPING 132/11KV,TNB,DISTRIBUTION,PMU 132/11 kV,132/11 kV,CPNG,RKAN/PMU/J00003,KANGAR,PMU,Insert,6.488852975,100.2836201
47678735,Existing,PMU KANGAR 132/33/11 KV,TNB,DISTRIBUTION,PMU 132/33kV (DOUBLE BUS),132/33/11,KGAR,RKAN/PMU/G00003,KANGAR,PMU,Update,6.439341833,100.2102469
47679229,Existing,PPU PADANG BESAR 33/11kV,TNB,DISTRIBUTION,PPU 33/11kV (DOUBLE BUS),33/11 kV,RPBSR,RKAN/PPU/G00001,KANGAR,PPU,Update,6.655650465,100.304647
47775140,Existing,PPU SHORUBBER 33/11KV,TNB,DISTRIBUTION,PPU 33/11kV (SINGLE BUS),33/11 kV,SHRB,RKAN/PPU/G00004,KANGAR,PPU,Insert,6.442898299,100.2278571
47776082,Existing,PPU LOJI PEMBERSIHAN AIR ARAU (LPAU),TNB,DISTRIBUTION,PPU 33/11kV (SINGLE BUS),33/11 kV,LPAU,RKAN/PPU/G00013,KANGAR,PPU,Insert,6.406080345,100.3000694
47777025,Existing,PPU UNIMAPS 33/11KV,TNB,DISTRIBUTION,PPU 33/11kV (SINGLE BUS),33/11 kV,UMAP,RKAN/PPU/G00005,KANGAR,PPU,Insert,6.462835174,100.3477439
47777993,Existing,PMU KUALA PERLIS 132/11KV,TNB,DISTRIBUTION,PMU 132/11 kV,132/11 kV,KPLS,RKAN/PMU/J00001,KANGAR,PMU,Insert,6.390793852,100.1345536
47778947,Existing,PPU POLITEKNIK 33/11KV,TNB,DISTRIBUTION,PPU 33/11kV (Cable Tie),33/11 kV,POPH,RKAN/PPU/G00010,KANGAR,PPU,Insert,6.451393187,100.3367735
47784543,Existing,PMU BUKIT MINYAK 132/33KV,TNB,DISTRIBUTION,PMU 132/33kV (DOUBLE BUS),132/33 kV,BMYK33,PBMT/PMU/G00001,SEBERANG JAYA,PMU,Insert,5.30397135,100.443909
47785283,Existing,PPU SEQD 33/11KV,TNB,DISTRIBUTION,PPU 33/11kV (DOUBLE BUS),33/11 kV,SEQD,PBUT/PPU/G00002,SEBERANG JAYA,PPU,Insert,5.350285996,100.393522
47786387,Existing,SSU ACID CHEM 33KV,TNB,DISTRIBUTION,SSU DOUBLE BUS 33 kV,33 kV,ACHM,PBUT/SSU/G00002,SEBERANG JAYA,SSU,Insert,5.370486202,100.3965631
47786593,Existing,SSU NATIONGATE 33KV,TNB,DISTRIBUTION,SSU SINGLE BUS + BUS SECTION 33 kV,33 kV,NGTE,PBUT/SSU/G00021,SEBERANG JAYA,SSU,Insert,5.362276644,100.3979417
47786809,Existing,PMU SUNGAI KECIL 132/33KV,TNB,DISTRIBUTION,PMU 132/33kV (DOUBLE BUS),132/33 &132/11,SKCL33,PNTL/PMU/G00001,NIBONG TEBAL,PMU,Insert,5.171847104,100.5265293
47787529,Existing,PMU AIR TERJUN 132/11KV,TNB,DISTRIBUTION,PMU 132/11 kV,132/11 KV,ATJN11,PPPG/PMU/J00003,PULAU PINANG,PMU,Insert,5.429512068,100.2992026
47857177,Existing,PMU BAYAN BARU 132/11KV,TNB,DISTRIBUTION,PMU 132/11 kV,132/11 KV,BBRU11,PPPG/PMU/J00002,PULAU PINANG,PMU,Insert,5.317117059,100.2957094
47857650,Existing,PMU BUKIT MERTAJAM 132/33/11KV,TNB,DISTRIBUTION,PMU 132/33kV (DOUBLE BUS),132/33/11,BMJM33,PBMT/PMU/G00002,SEBERANG JAYA,PMU,Insert,5.400435285,100.4606955
47858482,Existing,SSU MUDA PAPER MILL NO.2 33KV,TNB,DISTRIBUTION,SSU SINGLE BUS + BUS SECTION 33 kV,33 kV,MPML2,PNTL/SSU/G00009,NIBONG TEBAL,SSU,Insert,5.285531173,100.5139409
47861040,Existing,PPU SIMPANG EMPAT 33/11KV,TNB,DISTRIBUTION,PPU 33/11kV (Cable Tie),33/11 kV,SMPT,RKAN/PPU/G00002,KANGAR,PPU,Insert,6.338887614,100.1927304
47862520,Existing,PPU MIDLAND PARK 33/11KV,TNB,DISTRIBUTION,PPU 33/11kV (SINGLE BUS),33/11 kV,MIDL,PPPG/PPU/G00016,PULAU PINANG,PPU,Insert,5.433864999,100.305958
47863349,Existing,PPU PERMATANG RAWA 33/11KV,TNB,DISTRIBUTION,PPU 33/11kV (SINGLE BUS),33/11 kV,RAWA,PBMT/PPU/G00004,SEBERANG JAYA,PPU,Update,5.371264001,100.45198
47864176,Existing,PPU BERTAM 33/11KV,TNB,DISTRIBUTION,PPU 33/11kV (SINGLE BUS),33/11 kV,PBTAM,PBTM/PPU/G00002,BERTAM,PPU,Insert,5.518690092,100.4364359
47865067,Existing,PPU BANDAR TASEK MUTIARA 33/11KV,TNB,DISTRIBUTION,PPU 33/11kV (Cable Tie),33/11 kV,BTMR,PNTL/PPU/G00004,NIBONG TEBAL,PPU,Insert,5.281831003,100.486988
47883079,Existing,PPU SG ULAR,TNB,DISTRIBUTION,PPU 33/11kV (SINGLE BUS),33/11 kV,SGLR,KKLM/PPU/G00009,KULIM,PPU,Insert,5.348908746,100.5891068
47885822,Existing,PPU ADTEC MAHANG,TNB,DISTRIBUTION,PPU 33/11kV (SINGLE BUS),33/11 kV,ADTH,KKLM/PPU/G00007,KULIM,PPU,Insert,5.338446907,100.744201
47886608,Existing,,TNB,DISTRIBUTION,SSU SINGLE BUS + BUS SECTION 33 kV,,PTEX,,SEBERANG JAYA,SSU,Insert,5.379731445,100.3716448
47942557,Existing,PPU KELEDANG (MINI),TNB,DISTRIBUTION,PPU Mini,33/11 KV,KELE,KBLG/PPU/G00001,BALING,PPU,Insert,5.614832999,100.784335
47943854,Inactive,,TNB,DISTRIBUTION,PPU 33/11kV (Cable Tie),,,,SIK,PPU,Update,5.836595942,100.7488672
47944380,Abandoned,PPU SG KARANGAN (MOBILE),TNB,DISTRIBUTION,PPU 33/11kV,,MSKGN,KKLM/PPU/G00010,KULIM,PPU,Insert,5.525437731,100.6083834
47964591,Existing,PPU BAGAN LALANG 33/11KV,TNB,DISTRIBUTION,PPU 33/11kV (SINGLE BUS),33/11 kV,BGLL,PBUT/PPU/G00001,SEBERANG JAYA,PPU,Insert,5.430560003,100.408411
47965364,Existing,PPU KOTA PERMAI 33/11KV,TNB,DISTRIBUTION,PPU 33/11kV,33/11 kV,KPMI,PBMT/PPU/G00001,SEBERANG JAYA,PPU,Insert,5.337639001,100.456373
47966596,Existing,PPU PADANG MENORA 33/11KV,TNB,DISTRIBUTION,PPU 33/11kV (DOUBLE BUS),33/11 kV,PMRA,PBTM/PPU/G00003,BERTAM,PPU,Insert,5.458825029,100.471667
47967961,Existing,SSU B.BRAUN 33kV NO.2,TNB,DISTRIBUTION,SSU DOUBLE BUS 33 kV,33 kV,BBRN2,PBYB/SSU/G00003,BAYAN BARU,SSU,Insert,5.309929717,100.2801045
48054227,Existing,SSU AMD 33kV NO.1,TNB,DISTRIBUTION,SSU SINGLE BUS + BUS SECTION 33 kV,33 kV,AMD,PBYB/SSU/G00001,BAYAN BARU,SSU,Insert,5.308435001,100.280432
48054338,Existing,SSU B.BRAUN 33kV NO.1,TNB,DISTRIBUTION,SSU DOUBLE BUS 33 kV,33 kV,BBRN,PBYB/SSU/G00002,BAYAN BARU,SSU,Insert,5.314981001,100.284145
48054602,Existing,SSU AIRPORT 33KV,TNB,DISTRIBUTION,SSU DOUBLE BUS 33 kV,33 kV,PGIA,PPPG/SSU/G00021,PULAU PINANG,SSU,Insert,5.296135997,100.267505
48054988,Existing,PPU LEBUH TUNKU 33/11KV,TNB,DISTRIBUTION,PPU 33/11kV (SINGLE BUS),33/11 kV,LTKU,PPPG/PPU/G00039,PULAU PINANG,PPU,Insert,5.378446162,100.3154358
48055930,Existing,PPU BUKIT GAMBIR 33/11KV,TNB,DISTRIBUTION,PPU 33/11kV (SINGLE BUS),33/11 kV,BGBR,PPPG/PPU/G00040,PULAU PINANG,PPU,Insert,5.373416446,100.2981794
48056645,Existing,PPU TELUK KUMBAR 33/11KV,TNB,DISTRIBUTION,PPU 33/11kV (SINGLE BUS),33/11 kV,TKMR,PBYB/PPU/G00006,BAYAN BARU,PPU,Insert,5.290023557,100.2497892
48057587,Existing,PPU JALAN MAHSURI 33/11KV,TNB,DISTRIBUTION,PPU 33/11kV (SINGLE BUS),33/11 kV,SURI,PBYB/PPU/G00004,BAYAN BARU,PPU,Insert,5.325859368,100.2838107
48094194,Existing,PMU SUNGAI ARA 132/33KV,TNB,DISTRIBUTION,PMU 132/33kV (DOUBLE BUS),132/33 kV,SARA,PBYB/PMU/G00001,BAYAN BARU,PMU,Insert,5.337182319,100.2681197
48095089,Existing,PMU KANGAR 132/11KV,TNB,DISTRIBUTION,PMU 132/11 kV,132/11 KV,KNGR,RKAN/PMU/J00002,KANGAR,PMU,Update,6.4394966,100.2104977
48096742,Existing,PPU DELL 33/11KV,TNB,DISTRIBUTION,PPU 33/11kV (SINGLE BUS),33/11 kV,DELL,PBUT/PPU/G00026,SEBERANG JAYA,PPU,Insert,5.340796518,100.4411744
48152998,Existing,PPU PERMATANG DAMAR LAUT 33/11KV,TNB,DISTRIBUTION,PPU 33/11kV (SINGLE BUS),33/11 kV,PDLT,PPPG/PPU/G00011,PULAU PINANG,PPU,Insert,5.283706385,100.2708423
48153929,Existing,PPU NATIONAL SEMICONDUCTOR 33/11KV,TNB,DISTRIBUTION,PPU 33/11kV (DOUBLE BUS),33/11 kV,SEMI,PBYB/PPU/G00003,BAYAN BARU,PPU,Insert,5.304317003,100.278431
48155294,Existing,PPU SUNGAI TIRAM 33/11KV,TNB,DISTRIBUTION,PPU 33/11kV (SINGLE BUS),33/11 kV,STRM,PPPG/PPU/G00025,PULAU PINANG,PPU,Insert,5.30463311,100.2797119
48156185,Existing,PPU BUKIT JAMBUL 33/11KV,TNB,DISTRIBUTION,PPU 33/11kV (SINGLE BUS),33/11 kV,BJBL,PPPG/PPU/G00005,PULAU PINANG,PPU,Insert,5.334716266,100.2901591
48157118,Existing,PPU OSRAM 33/11KV,TNB,DISTRIBUTION,PPU 33/11kV (SINGLE BUS),33/11 kV,OSRM,PPPG/PPU/G00026,PULAU PINANG,PPU,Insert,5.31399794,100.2886532
48175092,Existing,PMU BUKIT KETERI SOUTH 132/33KV,TNB,DISTRIBUTION,PMU 132/33kV (DOUBLE BUS),132/33 kV,BKRS,RKAN/PMU/G00001,KANGAR,PMU,Insert,6.494792281,100.2487485
48176755,Existing,PMU BUKIT KETERI 33/11KV,TNB,DISTRIBUTION,PPU 33/11kV (Cable Tie),33/11 kV,RKTRI,RKAN/PPU/G00003,KANGAR,PPU,Update,6.511057672,100.2608062
48177472,Existing,PMU SIMPANG AMPAT EAST 132/33KV,TNB,DISTRIBUTION,PMU 132/33kV (DOUBLE BUS),132/33 kV,SPAE,PNTL/PMU/G00004,NIBONG TEBAL,PMU,Insert,5.262322517,100.485129
48178599,Existing,PMU BAYAN MUTIARA 132/33KV,TNB,DISTRIBUTION,PMU 132/33kV (DOUBLE BUS),132/33 kV,BMTR,PPPG/PMU/G00008,PULAU PINANG,PMU,Insert,5.342714816,100.3082096
48236549,Existing,PPU TANJUNG BUNGAH 33/11KV,TNB,DISTRIBUTION,PPU 33/11kV,33/11 kV,TBGH,PPPG/PPU/G00021,PULAU PINANG,PPU,Insert,5.476432999,100.272698
48237668,Existing,SSU PHILIPS 33KV,TNB,DISTRIBUTION,SSU DOUBLE BUS 33 kV,33 kV,PHIL,PPPG/SSU/G00022,PULAU PINANG,SSU,Insert,5.295031998,100.283105
48238054,Existing,PMU FARLIM 132/33KV,TNB,DISTRIBUTION,PMU 132/33kV (DOUBLE BUS),132/11 kV,FLIM,PPPG/PMU/G00006,PULAU PINANG,PMU,Insert,5.399031505,100.2899761
48238540,Existing,PMU SUNGAI PINANG 132/33/11KV,TNB,DISTRIBUTION,PMU 132/33/11 kV (SINGLE BUS),132/33/11,SPNG,PPPG/PMU/G00004,PULAU PINANG,PMU,Insert,5.407714999,100.324167
48257771,Existing,PPU SEBERANG JAYA 33/11KV,TNB,DISTRIBUTION,PPU 33/11kV (Cable Tie),33/11 kV,SJYA,PBUT/PPU/G00014,SEBERANG JAYA,PPU,Insert,5.397930589,100.400386
48258533,Existing,PPU SRI KIJANG 33/11KV,TNB,DISTRIBUTION,PPU 33/11kV (Cable Tie),33/11 kV,SKJG,PBMT/PPU/G00007,SEBERANG JAYA,PPU,Insert,5.315271922,100.4750387
48259459,Existing,"PPU MOBILE  SG.RUSA 33/11KV,1x7.5MVA",TNB,DISTRIBUTION,PPU Mini,33/11 kV,RUSA,PBYB/PPU/G00007,BAYAN BARU,PPU,Insert,5.370850363,100.2189147
48259824,Existing,PPU BALIK PULAU 33/11KV,TNB,DISTRIBUTION,PPU 33/11kV (SINGLE BUS),33/11 kV,BPUL,PBYB/PPU/G00001,BAYAN BARU,PPU,Insert,5.351470334,100.2378522
48329846,Existing,PMU AIR TERJUN 132/33KV,TNB,DISTRIBUTION,PMU 132/33kV (DOUBLE BUS),132/33/11,ATJN,PPPG/PMU/G00005,PULAU PINANG,PMU,Insert,5.429757035,100.2991542
48330566,Existing,PPU JALAN TENGAH 33/11KV,TNB,DISTRIBUTION,PPU 33/11kV (SINGLE BUS),33/11 kV,PJTGH,PBYB/PPU/G00002,BAYAN BARU,PPU,Insert,5.325434207,100.2730185
48331513,Existing,SSU LINEAR 33KV,TNB,DISTRIBUTION,SSU DOUBLE BUS 33 kV,33 kV,LINE,PPPG/SSU/G00013,PULAU PINANG,SSU,Insert,5.301748799,100.2946578
48331777,Existing,SSU SEAGATE 33KV,TNB,DISTRIBUTION,SSU DOUBLE BUS 33 kV,33 kV,SGTE,PPPG/SSU/G00009,PULAU PINANG,SSU,Insert,5.316220757,100.2992993
48332014,Existing,PMU SUNGAI KECIL 132/11KV,TNB,DISTRIBUTION,PMU 132/11 kV,132/11 KV,SKCL11,PNTL/PMU/J00006,NIBONG TEBAL,PMU,Insert,5.17225994,100.5263284
48332963,Existing,PPU NAGASARI 33/11KV,TNB,DISTRIBUTION,PPU 33/11kV (DOUBLE BUS),33/11 kV,NGSI,PBUT/PPU/G00013,SEBERANG JAYA,PPU,Insert,5.367165002,100.41093
48347610,Existing,PPU JALAN PERUSAHAAN 2 33/11KV,TNB,DISTRIBUTION,PPU 33/11kV (SINGLE BUS),33/11 kV,JPSN2,PBUT/PPU/G00033,SEBERANG JAYA,PPU,Insert,5.361921199,100.4008326
48348552,Existing,PPU DATO KERAMAT 33/11KV,TNB,DISTRIBUTION,PPU 33/11kV (SINGLE BUS),33/11 KV,KRMT,PPPG/PPU/G00013,PULAU PINANG,PPU,Insert,5.413119265,100.3134673
48349257,Existing,PPU BANDAR PUTRA BERTAM 33/11KV,TNB,DISTRIBUTION,PPU 33/11kV (Cable Tie),33/11 kV,BPUT,PBTM/PPU/G00012,BERTAM,PPU,Update,5.519335254,100.4949435
48350019,Existing,PPU GURNEY PARK 33/11KV,TNB,DISTRIBUTION,PPU 33/11kV (SINGLE BUS),33/11 kV,GPRK,PPPG/PPU/G00019,PULAU PINANG,PPU,Insert,5.436300856,100.3096556
48356273,Existing,PPU PENGKALAN HULU,TNB,DISTRIBUTION,PPU 33/11kV (SINGLE BUS),33/11 kV,PKHU,AGRK/PPU/G00009,GERIK,PPU,Update,5.735578318,101.018531
48394557,Existing,SSU BOSE 33KV,TNB,DISTRIBUTION,SSU SINGLE BUS + BUS SECTION 33 kV,33 kV,BOSE,PNTL/SSU/G00005,NIBONG TEBAL,SSU,Insert,5.232453655,100.4591367
48394773,Existing,SSU MAL 33KV,TNB,DISTRIBUTION,SSU SINGLE BUS + BUS SECTION 33 kV,33 kV,MAL33,PNTL/SSU/G00004,NIBONG TEBAL,SSU,Insert,5.226223483,100.4526989
48394989,Existing,SSU IIA TECHNOLOGY 33KV,TNB,DISTRIBUTION,SSU SINGLE BUS + BUS SECTION 33 kV,33 kV,2ATE,PNTL/SSU/G00006,NIBONG TEBAL,SSU,Insert,5.291291715,100.4371796
48395205,Existing,SSU MOTOROLA 33KV,TNB,DISTRIBUTION,SSU DOUBLE BUS 33 kV,33 kV,MOTO,PPPG/SSU/G00024,PULAU PINANG,SSU,Insert,5.296745004,100.293649
48395591,Existing,SSU MYDIN 33KV,TNB,DISTRIBUTION,SSU SINGLE BUS + BUS SECTION 33 kV,33 kV,MYDN,PBUT/SSU/G00019,SEBERANG JAYA,SSU,Insert,5.368480752,100.4129556
48395807,Existing,SSU UITM 33KV,TNB,DISTRIBUTION,SSU DOUBLE BUS 33 kV,33 kV,PUITM,PBUT/SSU/G00001,SEBERANG JAYA,SSU,Insert,5.384521002,100.417621
48396069,Existing,SSU HONDA 33KV,TNB,DISTRIBUTION,SSU SINGLE BUS + BUS SECTION 33 kV,33 kV,HNDA,PNTL/SSU/G00003,NIBONG TEBAL,SSU,Insert,5.228989219,100.4458844
48396285,Existing,SSU AGILENT 33KV,TNB,DISTRIBUTION,SSU DOUBLE BUS 33 kV,33 kV,AGLN,PPPG/SSU/G00012,PULAU PINANG,SSU,Insert,5.318895462,100.2995139
48396597,Existing,SSU AVAGO 33KV,TNB,DISTRIBUTION,SSU DOUBLE BUS 33 kV,33 kV,AVGO,PPPG/SSU/G00014,PULAU PINANG,SSU,Insert,5.320231076,100.2989183
48396975,Existing,SSU AMD NO.2 33KV,TNB,DISTRIBUTION,SSU DOUBLE BUS 33 kV,33 kV,AMD2,PPPG/SSU/G00016,PULAU PINANG,SSU,Insert,5.323455,100.296575
48397506,Existing,SSU BAXTER 33KV,TNB,DISTRIBUTION,SSU DOUBLE BUS 33 kV,33 kV,BAXT,PPPG/SSU/G00003,PULAU PINANG,SSU,Insert,5.314987896,100.2959519
48423736,Existing,PPU MEDAN RAJAWALI 33/11KV,TNB,DISTRIBUTION,PPU 33/11kV (Cable Tie),33/11 kV,MRWI,PPPG/PPU/G00036,PULAU PINANG,PPU,Insert,5.299840573,100.2654628
48424498,Existing,PPU TEBUS GUNA TANAH 33/11KV,TNB,DISTRIBUTION,PPU 33/11kV (Cable Tie),33/11 kV,RCLD,PPPG/PPU/G00003,PULAU PINANG,PPU,Insert,5.30532605,100.2910277
48425978,Existing,PPU JALAN TENAGA 33/11KV,TNB,DISTRIBUTION,PPU 33/11kV (Cable Tie),33/11 kV,JTEN,PBUT/PPU/G00031,SEBERANG JAYA,PPU,Update,5.391753813,100.398427
48479445,Existing,SSU JABIL 33KV,TNB,DISTRIBUTION,SSU DOUBLE BUS 33 kV,33 kV,JCIT,PPPG/SSU/G00005,PULAU PINANG,SSU,Insert,5.303066604,100.2915596
48479707,Existing,SSU KOMAG NO.2 33KV,TNB,DISTRIBUTION,SSU DOUBLE BUS 33 kV,33 kV,KMG2,PPPG/SSU/G00008,PULAU PINANG,SSU,Insert,5.295337997,100.285859
48480000,Existing,SSU IOMEGA 33KV,TNB,DISTRIBUTION,SSU SINGLE BUS + BUS SECTION 33 kV,33 kV,IMGA,PPPG/SSU/G00006,PULAU PINANG,SSU,Insert,5.300114134,100.2924462
48480085,Existing,SSU SITT TATT 33KV,TNB,DISTRIBUTION,SSU DOUBLE BUS 33 kV,33 kV,SITT,PBUT/SSU/G00012,SEBERANG JAYA,SSU,Insert,5.344226222,100.4069279
48480266,Existing,SSU SOLECTRON 33kV,TNB,DISTRIBUTION,SSU DOUBLE BUS 33 kV,33 kV,STRN,PBMT/SSU/G00003,SEBERANG JAYA,SSU,Insert,5.307924997,100.45485
48480528,Existing,SSU YEW LEAN 33KV,TNB,DISTRIBUTION,SSU DOUBLE BUS 33 kV,33 kV,YLAN,PBUT/SSU/G00004,SEBERANG JAYA,SSU,Insert,5.352082119,100.4038741
48480734,Existing,SSU SANDISK 33KV,TNB,DISTRIBUTION,SSU SINGLE BUS + BUS SECTION 33 kV,33 kV,SAND,PNTL/SSU/G00007,NIBONG TEBAL,SSU,Insert,5.229213253,100.4578836
48480950,Existing,SSU TORAY 33KV,TNB,DISTRIBUTION,SSU SINGLE BUS + BUS SECTION 33 kV,33 kV,TRAY,PBUT/SSU/G00006,SEBERANG JAYA,SSU,Insert,5.36234253,100.3865788
48481087,Existing,SSU MUDA PAPER MILL 33KV,TNB,DISTRIBUTION,SSU DOUBLE BUS 33 kV,33 kV,MPML,PNTL/SSU/G00002,NIBONG TEBAL,SSU,Insert,5.284400927,100.51433
48481354,Existing,SSU FATTY CHEM 33KV,TNB,DISTRIBUTION,SSU DOUBLE BUS 33 kV,33 kV,FCHM,PBUT/SSU/G00005,SEBERANG JAYA,SSU,Insert,5.371904585,100.3997386
48481591,Existing,SSU SUNGAI DUA PUMP HOUSE 33KV,TNB,DISTRIBUTION,SSU DOUBLE BUS 33 kV,33 kV,SHSE,PBUT/SSU/G00007,SEBERANG JAYA,SSU,Insert,5.452457757,100.4350242
48481909,Existing,SSU CHIN WELL 33KV,TNB,DISTRIBUTION,SSU SINGLE BUS + BUS SECTION 33 kV,33 kV,CNWL,PBMT/SSU/G00001,SEBERANG JAYA,SSU,Insert,5.337377261,100.4387193
48481994,Existing,SSU NTPM 33KV,TNB,DISTRIBUTION,SSU DOUBLE BUS 33 kV,33 kV,NTPM,PNTL/SSU/G00001,NIBONG TEBAL,SSU,Insert,5.155072286,100.5092668
48482319,Existing,SSU AEON 33kV,TNB,DISTRIBUTION,SSU SINGLE BUS + BUS SECTION 33 kV,33 kV,AEON33,PBMT/SSU/G00004,SEBERANG JAYA,SSU,Insert,5.319189473,100.4783666
48482535,Existing,SSU MSM (MALAYAN SUGAR MFG) 33KV,TNB,DISTRIBUTION,SSU SINGLE BUS + BUS SECTION 33 kV,33 kV,MASM,PBUT/SSU/G00009,SEBERANG JAYA,SSU,Insert,5.390306711,100.3777558
48482751,Existing,SSU JELUTONG SEWERAGE 33KV,TNB,DISTRIBUTION,SSU DOUBLE BUS 33 kV,33 kV,SWGE,PPPG/SSU/G00017,PULAU PINANG,SSU,Insert,5.396231,100.321167
48483137,Existing,SSU WOODARD 33KV,TNB,DISTRIBUTION,SSU DOUBLE BUS 33 kV,33 kV,WDRD,PPPG/SSU/G00011,PULAU PINANG,SSU,Insert,5.320844473,100.2962642
48483374,Existing,SSU GLOBETRONICS 33KV,TNB,DISTRIBUTION,SSU DOUBLE BUS 33 kV,33 kV,GLOB,PPPG/SSU/G00004,PULAU PINANG,SSU,Insert,5.307151004,100.293072
48527452,Existing,PMU BAYAN LEPAS NO.2 132/33/11KV,TNB,DISTRIBUTION,PMU 132/33/11 kV (DOUBLE BUS),132/33 kV,BL33,PPPG/PMU/G00007,PULAU PINANG,PMU,Insert,5.295288428,100.2941675
48529100,Existing,SSU JA SOLAR 33KV,TNB,DISTRIBUTION,SSU SINGLE BUS + BUS SECTION 33 kV,33 kV,JASR,PPPG/SSU/G00019,PULAU PINANG,SSU,Insert,5.296349278,100.2902742
48560903,Existing,SSU USM MINDEN 33KV,TNB,DISTRIBUTION,SSU SINGLE BUS + BUS SECTION 33 kV,33 kV,MNDN,PPPG/SSU/G00023,PULAU PINANG,SSU,Insert,5.355239004,100.308502
48561119,Existing,SSU SONY 33KV,TNB,DISTRIBUTION,SSU DOUBLE BUS 33 kV,33 kV,PSONY,PBUT/SSU/G00011,SEBERANG JAYA,SSU,Insert,5.361293068,100.3968223
48561412,Existing,SSU TECO 33KV,TNB,DISTRIBUTION,SSU SINGLE BUS + BUS SECTION 33 kV,33 kV,TECO,PBUT/SSU/G00010,SEBERANG JAYA,SSU,Insert,5.359687733,100.4089181
48561497,Existing,SSU SOUTHERN PIPE 33KV,TNB,DISTRIBUTION,SSU SINGLE BUS + BUS SECTION 33 kV,33 kV,SPIP,PBUT/SSU/G00013,SEBERANG JAYA,SSU,Insert,5.400410059,100.3827138
48561608,Existing,SSU KOMAG NO.1 33KV,TNB,DISTRIBUTION,SSU DOUBLE BUS 33 kV,33 kV,KMAG,PPPG/SSU/G00007,PULAU PINANG,SSU,Insert,5.324023003,100.2923887
48561901,Existing,PPU JALAN ROZHAN 33/11KV,TNB,DISTRIBUTION,PPU 33/11kV (SINGLE BUS),33/11 kV,JROZ,PBMT/PPU/G00002,SEBERANG JAYA,PPU,Insert,5.335712481,100.4815676
48562596,Existing,PPU RAJA UDA 33/11KV,TNB,DISTRIBUTION,PPU 33/11kV (SINGLE BUS),33/11 kV,RUDA,PBUT/PPU/G00027,SEBERANG JAYA,PPU,Insert,5.421338,100.384643
48563538,Existing,PPU PERDA 33/11KV,TNB,DISTRIBUTION,PPU 33/11kV (SINGLE BUS),33/11 kV,PRDA,PBMT/PPU/G00005,SEBERANG JAYA,PPU,Insert,5.368780283,100.4371071
48564480,Existing,PPU STCO 33/11KV,TNB,DISTRIBUTION,PPU 33/11kV,33/11 kV,STCO,PBUT/PPU/G00012,SEBERANG JAYA,PPU,Insert,5.401138003,100.366224
48642918,Existing,PPU BUKIT MINYAK 33/11KV,TNB,DISTRIBUTION,PPU 33/11kV (SINGLE BUS),33/11 kV,BUMK,PBMT/PPU/G00006,SEBERANG JAYA,PPU,Insert,5.291413004,100.457129
48643861,Existing,PPU PERMATANG TINGGI 33/11KV,TNB,DISTRIBUTION,PPU 33/11kV (SINGLE BUS),33/11 kV,PTGI,PBMT/PPU/G00003,SEBERANG JAYA,PPU,Insert,5.314313438,100.4616926
48644740,Existing,PPU MAK MANDIN 33/11KV,TNB,DISTRIBUTION,PPU 33/11kV,33/11 kV,MMDN,PBUT/PPU/G00005,SEBERANG JAYA,PPU,Insert,5.418910797,100.3979196
48646350,Existing,PPU PENFIBRE 33/11KV,TNB,DISTRIBUTION,PPU 33/11kV (DOUBLE BUS),33/11 kV,PFIB,PBUT/PPU/G00007,SEBERANG JAYA,PPU,Update,5.362649762,100.386343
48679032,Existing,PPU KELIBANG,TNB,DISTRIBUTION,PPU 33/11kV (SINGLE BUS),33/11 kV,KLIB,KLGK/PPU/G00002,LANGKAWI,PPU,Insert,6.33049096,99.82614226
48680486,Existing,PPU KG KOK,TNB,DISTRIBUTION,PPU 33/11kV (Cable Tie),33/11 kV,KKOK,KLGK/PPU/G00003,LANGKAWI,PPU,Insert,6.381711958,99.6931929
48725211,Existing,PPU CONNER 33/11KV,TNB,DISTRIBUTION,PPU 33/11kV,33/11 kV,CONR,PBUT/PPU/G00004,SEBERANG JAYA,PPU,Insert,5.366537449,100.3955595
48726691,Existing,PPU KAMPUNG TELUK 33/11KV,TNB,DISTRIBUTION,PPU 33/11kV (SINGLE BUS),33/11 kV,KTLK,PBUT/PPU/G00010,SEBERANG JAYA,PPU,Insert,5.374172435,100.4004852
48727396,Existing,PPU KEPALA BATAS 33/11KV,TNB,DISTRIBUTION,PPU 33/11kV (SINGLE BUS),33/11 kV,KBTS,PBTM/PPU/G00001,BERTAM,PPU,Insert,5.515354983,100.4232513
48728130,Existing,PPU RAAF 33/11KV,TNB,DISTRIBUTION,PPU 33/11kV (SINGLE BUS),33/11 kV,RMAF,PBUT/PPU/G00011,SEBERANG JAYA,PPU,Insert,5.453544001,100.383673
48736966,Existing,PMU GUAR CHEMPEDAK 132/11KV,TNB,DISTRIBUTION,PMU 132/33/11 kV (SINGLE BUS),132/11 kV,GCPD,KGCM/PMU/J00003,GUAR CHEMPEDAK,PMU,Insert,5.856617065,100.4537133
48737434,Inactive,PPU UITM MERBOK,TNB,DISTRIBUTION,PPU 33/11kV (DOUBLE BUS),33/11 kV,UMBK,KSGP/PPU/G00006,SUNGAI PETANI,PPU,Update,5.714915409,100.4484265
48738688,Existing,PPU HONDA HICOM,TNB,DISTRIBUTION,PPU 33/11kV (SINGLE BUS),33/11 kV,HHCM,KSGP/PPU/G00007,SUNGAI PETANI,PPU,Insert,5.612187403,100.4781488
48741133,Existing,PPU CERGAS LAYAR,TNB,DISTRIBUTION,PPU 33/11kV (SINGLE BUS),33/11 kV,CYAR,KSGP/PPU/G00003,SUNGAI PETANI,PPU,Insert,5.62257808,100.4710295
48801729,Existing,PPU JALAN PERUSAHAAN 33/11KV,TNB,DISTRIBUTION,PPU 33/11kV (SINGLE BUS),33/11 kV,JPSN,PBUT/PPU/G00008,SEBERANG JAYA,PPU,Insert,5.358662997,100.40459
48802671,Existing,PPU CHAIN FERRY 33/11KV,TNB,DISTRIBUTION,PPU 33/11kV,33/11 kV,FERI,PBUT/PPU/G00009,SEBERANG JAYA,PPU,Insert,5.404645871,100.3859486
48803897,Existing,PMU SEBERANG JAYA 132/33KV,TNB,DISTRIBUTION,PMU 132/33kV (DOUBLE BUS),132/33 kV,SJAY,PBUT/PMU/G00005,SEBERANG JAYA,PMU,Insert,5.397709928,100.400849
48804617,Existing,PMU VALDOR 132/11KV,TNB,DISTRIBUTION,PMU 132/11 kV,132/11 kV,VDOR,PNTL/PMU/J00003,NIBONG TEBAL,PMU,Update,5.229974727,100.4820233
48805504,Existing,PMU BUKIT MERTAJAM 132/11KV,TNB,DISTRIBUTION,PMU 132/11 kV,132/33 KV,BMJM11,PBMT/PMU/J00002,SEBERANG JAYA,PMU,Insert,5.400069001,100.460425
48875116,Existing,PMU BUKIT TAMBUN 132/33/11KV,TNB,DISTRIBUTION,PMU 132/33/11 kV (SINGLE BUS),132/33 &132/11,BTBN,PNTL/PMU/G00002,NIBONG TEBAL,PMU,Update,5.268220179,100.4554391
48876710,Inactive,PMU SIMPANG AMPAT 132/11KV,TNB,DISTRIBUTION,PMU 132/11 kV,132/11 kV,,PNTL/PMU/J00001,NIBONG TEBAL,PMU,Update,5.2751922,100.4547273
48877038,Existing,PMU BUKIT MINYAK 132/11KV,TNB,DISTRIBUTION,PMU 132/11 kV,132/33 KV,BMYK11,PBMT/PMU/J00001,SEBERANG JAYA,PMU,Insert,5.303652017,100.4440678
48878150,Existing,PMU PRAI INDUSTRI NO.2 132/33/11KV,TNB,DISTRIBUTION,PMU 132/33/11 kV (DOUBLE BUS),132/33 kV,PRID33GIS,PBUT/PMU/G00010,SEBERANG JAYA,PMU,Insert,5.345205491,100.420217
48900841,Existing,PMU AMANJAYA 132/33KV,TNB,DISTRIBUTION,PMU 132/33kV (DOUBLE BUS),132/33/11,AJYA,KSGP/PMU/G00009,SUNGAI PETANI,PMU,Insert,5.696842638,100.5234857
48901560,Existing,PPU SUNGAI LALANG,TNB,DISTRIBUTION,PPU 33/11kV (DOUBLE BUS),33/11 kV,SGLL,KSGP/PPU/G00004,SUNGAI PETANI,PPU,Insert,5.689313345,100.5104487
48902813,Existing,PPU AMANJAYA,TNB,DISTRIBUTION,PPU 33/11kV (SINGLE BUS),33/11 kV,AMJA,KSGP/PPU/G00005,SUNGAI PETANI,PPU,Insert,5.677228816,100.5049304
48903734,Existing,PPU TAMAN KELISA,TNB,DISTRIBUTION,PPU 33/11kV (SINGLE BUS),33/11 kV,KLSA,KSGP/PPU/G00011,SUNGAI PETANI,PPU,Insert,5.634599746,100.5556194
48966199,Existing,PMU BUKIT TENGAH 132/33/11KV,TNB,DISTRIBUTION,PMU 132/33/11 kV (SINGLE BUS),132/11 kV,BTGH33,PBUT/PMU/G00001,SEBERANG JAYA,PMU,Insert,5.375491971,100.4081965
48967375,Existing,PMU BUTTERWORTH NORTH 132/33/11KV,TNB,DISTRIBUTION,PMU 132/33/11 kV (SINGLE BUS),132/33 kV,BWTN,PBUT/PMU/G00002,SEBERANG JAYA,PMU,Insert,5.451287637,100.4042255
48968197,Existing,PMU PRAI GIS 132/33KV,TNB,DISTRIBUTION,PMU 132/33kV (DOUBLE BUS),132/33 kV,PRGS,PBUT/PMU/G00003,SEBERANG JAYA,PMU,Insert,5.373820161,100.3762061
48990979,Existing,PPU WAKTU CERAH,TNB,DISTRIBUTION,PPU 33/11kV (SINGLE BUS),33/11 kV,WCRH,KSGP/PPU/G00008,SUNGAI PETANI,PPU,Insert,5.62549405,100.5269457
48991910,Existing,SSU MODENAS,TNB,DISTRIBUTION,SSU DOUBLE BUS 33 kV,33 kV,MDNS,KSGP/SSU/G00002,SUNGAI PETANI,SSU,Insert,5.790203702,100.4876527
48992283,Existing,SSU MDF(DONGHWA),TNB,DISTRIBUTION,SSU SINGLE BUS + BUS SECTION 33 kV,33 kV,MDF,KSGP/SSU/G00003,SUNGAI PETANI,SSU,Insert,5.719956894,100.4214491
48992368,Existing,SSU MDC,TNB,DISTRIBUTION,SSU SINGLE BUS + BUS SECTION 33 kV,33 kV,MDC,KSGP/SSU/G00004,SUNGAI PETANI,SSU,Insert,5.669808958,100.5389916
48992584,Existing,PPU KUARI SIK,TNB,DISTRIBUTION,PPU 33/11kV (Cable Tie),33/11 kV,KSIK,KSIK/PPU/G00003,SIK,PPU,Insert,5.800595014,100.7012016
48992799,Existing,PMU BUKIT SELAMBAU 132/11KV,TNB,DISTRIBUTION,PMU 132/11 kV,132/11 kV,BSBU,KSGP/PMU/G00005,SUNGAI PETANI,PMU,Insert,5.68769676,100.624223
48994505,Existing,,TNB,DISTRIBUTION,PMU 132/33kV (DOUBLE BUS),,INTN233,,SUNGAI PETANI,PMU,Update,5.636229349,100.4768936
49029191,Existing,PMU PRAI GIS 132/11KV,TNB,DISTRIBUTION,PMU 132/11 kV,132/11 KV,PRGS11,PBUT/PMU/J00001,SEBERANG JAYA,PMU,Insert,5.37345132,100.3763511
49030211,Existing,PMU GELUGOR 132/33KV,TNB,DISTRIBUTION,PMU 132/33kV (DOUBLE BUS),132/33 kV,GLGR,PPPG/PMU/G00003,PULAU PINANG,PMU,Update,5.381311272,100.3138584
49031442,Existing,PMU BAYAN LEPAS NO.1 132/33KV,TNB,DISTRIBUTION,PMU 132/33kV (DOUBLE BUS),132/33/11,BLPS,PPPG/PMU/G00001,PULAU PINANG,PMU,Insert,5.294928296,100.2937991
49032162,Existing,PPU BAGAN DALAM 33/11KV,TNB,DISTRIBUTION,PPU 33/11kV (SINGLE BUS),33/11 kV,BDLM,PBUT/PPU/G00015,SEBERANG JAYA,PPU,Insert,5.396211997,100.372491
49033110,Existing,PPU USM TRANSKRIAN 33/11KV,TNB,DISTRIBUTION,PPU 33/11kV (SINGLE BUS),33/11 kV,USMT,PNTL/PPU/G00002,NIBONG TEBAL,PPU,Insert,5.150184002,100.488754
49111344,Existing,PMU BAYAN BARU 132/33KV,TNB,DISTRIBUTION,PMU 132/33kV (DOUBLE BUS),132/33 kV,BBRU,PPPG/PMU/G00002,PULAU PINANG,PMU,Insert,5.316978489,100.2956294
49112120,Existing,PPU JALAN KENARI 33/11KV,TNB,DISTRIBUTION,PPU 33/11kV (SINGLE BUS),33/11 kV,KNRI,PBYB/PPU/G00005,BAYAN BARU,PPU,Insert,5.320875004,100.262566
49113062,Existing,PPU CHOWRASTA 33/11KV,TNB,DISTRIBUTION,PPU 33/11kV (SINGLE BUS),33/11 kV,CHOW,PPPG/PPU/G00018,PULAU PINANG,PPU,Insert,5.417126,100.332506
49114005,Existing,PPU KAMPUNG JAWA 33/11KV,TNB,DISTRIBUTION,PPU 33/11kV (SINGLE BUS),33/11 kV,JAWA,PPPG/PPU/G00007,PULAU PINANG,PPU,Insert,5.324957825,100.2976965
49209753,Existing,PPU BAYAN BAY 33/11KV,TNB,DISTRIBUTION,PPU 33/11kV (SINGLE BUS),33/11 kV,BBAY,PPPG/PPU/G00004,PULAU PINANG,PPU,Insert,5.335082003,100.306156
49210684,Existing,PPU HEWLETT PACKARD 33/11KV,TNB,DISTRIBUTION,PPU 33/11kV,33/11 kV,HWPK,PPPG/PPU/G00006,PULAU PINANG,PPU,Insert,5.318641018,100.2971531
49212164,Existing,PPU BATU FERINGGHI 33/11KV,TNB,DISTRIBUTION,PPU 33/11kV,33/11 kV,BFGI,PPPG/PPU/G00002,PULAU PINANG,PPU,Update,5.46599701,100.2434942
49213474,Existing,PPU PULAU TIKUS 33/11KV,TNB,DISTRIBUTION,PPU 33/11kV (DOUBLE BUS),33/11 kV,PTIK,PPPG/PPU/G00022,PULAU PINANG,PPU,Insert,5.428349999,100.311214
49279308,Existing,PPU PRANGIN MALL 33/11KV,TNB,DISTRIBUTION,PPU 33/11kV (SINGLE BUS),33/11 kV,PMAL,PPPG/PPU/G00017,PULAU PINANG,PPU,Insert,5.413506997,100.331804
49279987,Existing,PPU JALAN LARUT 33/11KV,TNB,DISTRIBUTION,PPU 33/11kV (SINGLE BUS),33/11 kV,JLRT,PPPG/PPU/G00020,PULAU PINANG,PPU,Insert,5.423580058,100.3258682
49280676,Existing,PPU USM 33/11KV,TNB,DISTRIBUTION,PPU 33/11kV (DOUBLE BUS),33/11 kV,UNIS,PPPG/PPU/G00023,PULAU PINANG,PPU,Insert,5.354906392,100.3081773
49281932,Existing,PPU JELUTONG EXPRESSWAY 33/11KV,TNB,DISTRIBUTION,PPU 33/11kV (SINGLE BUS),33/11 kV,JEXP,PPPG/PPU/G00027,PULAU PINANG,PPU,Insert,5.397460575,100.3255826
49381637,Existing,PPU TANJUNG TOKONG 33/11KV,TNB,DISTRIBUTION,PPU 33/11kV (SINGLE BUS),33/11 kV,TKNG,PPPG/PPU/G00031,PULAU PINANG,PPU,Insert,5.450044677,100.3087872
49382579,Existing,PPU TIMES SQUARE 33/11KV,TNB,DISTRIBUTION,PPU 33/11kV (SINGLE BUS),33/11 kV,PTSQ,PPPG/PPU/G00032,PULAU PINANG,PPU,Insert,5.411638097,100.3270553
49383521,Existing,PPU BANDAR BARU AYER ITAM 33/11KV,TNB,DISTRIBUTION,PPU 33/11kV (Cable Tie),33/11 kV,BBAI,PPPG/PPU/G00042,PULAU PINANG,PPU,Insert,5.399794918,100.29065
49384287,Existing,PPU JALAN KELAWAI 33/11KV,TNB,DISTRIBUTION,PPU 33/11kV (SINGLE BUS),33/11 kV,KLWI,PPPG/PPU/G00041,PULAU PINANG,PPU,Insert,5.435291998,100.310376
49385230,Existing,PMU NIBONG TEBAL 132/11KV,TNB,DISTRIBUTION,PMU 132/11 kV,132/11 kV,NTBL,PNTL/PMU/J00005,NIBONG TEBAL,PMU,Insert,5.175162997,100.46487
49467759,Existing,PPU PAYA TERUBONG 33/11KV,TNB,DISTRIBUTION,PPU 33/11kV,33/11 kV,PTBG,PPPG/PPU/G00012,PULAU PINANG,PPU,Insert,5.365352002,100.274048
49469071,Existing,PPU HOSPITAL 33/11KV,TNB,DISTRIBUTION,PPU 33/11kV (SINGLE BUS),33/11 kV,HOSP,PPPG/PPU/G00034,PULAU PINANG,PPU,Insert,5.418848632,100.3125192
49470040,Existing,PMU FARLIM 132/11KV,TNB,DISTRIBUTION,PMU 132/11 kV,132/11 KV,FLIM11,PPPG/PMU/J00004,PULAU PINANG,PMU,Update,5.398527411,100.2895988
49470498,Existing,SSU ASE 33KV,TNB,DISTRIBUTION,SSU DOUBLE BUS 33 kV,33 kV,ASE,PPPG/SSU/G00002,PULAU PINANG,SSU,Update,5.307992328,100.2952179
49470876,Existing,PMU PRAI INDUSTRI NO.1 132/33KV,TNB,DISTRIBUTION,PMU 132/33kV (DOUBLE BUS),132/33 kV,PRID,PBUT/PMU/G00004,SEBERANG JAYA,PMU,Insert,5.345641999,100.420021
49479414,Existing,SSU LOJI AIR KULIM HITECH,TNB,DISTRIBUTION,SSU SINGLE BUS + BUS SECTION 33 kV,33 kV,KLHT,KSGP/SSU/G00005,SUNGAI PETANI,SSU,Insert,5.568950358,100.5054926
49524559,Existing,,TNB,DISTRIBUTION,PMU 132/11 kV,,SPID11,,SUNGAI PETANI,PMU,Insert,5.660070142,100.5345344
49531722,Existing,SSU NBCT 33KV,TNB,DISTRIBUTION,SSU DOUBLE BUS 33 kV,33 kV,NBCT,PBUT/SSU/G00003,SEBERANG JAYA,SSU,Insert,5.417542516,100.3713552
49993733,Existing,SSU INARI 33KV,TNB,DISTRIBUTION,SSU SINGLE BUS + BUS SECTION 33 kV,33 kV,INRI,PBYB/SSU/G00004,BAYAN BARU,SSU,Update,5.312251,100.2958999
50014144,Existing,PMU A.SETAR GIS 132/11KV,TNB,DISTRIBUTION,PMU 132/11 kV,132/11 kV,ASTR11,KALS/PMU/J00003,ALOR SETAR,PMU,Update,6.128449871,100.3652688
50066245,Existing,PMU PARIT BUNTAR,TNB,DISTRIBUTION,PMU 132/11 kV,132/11 kV,PBTR,ASER/PMU/J00002,BAGAN SERAI,PMU,Update,5.130530471,100.4682276
50074906,Existing,PPU DEDAUN BATU KAWAN 33/11KV,TNB,DISTRIBUTION,PPU 33/11kV (Cable Tie),33/11 kV,DAUN,PNTL/PPU/G00006,NIBONG TEBAL,PPU,Insert,5.257835091,100.4380025
50076334,Existing,PPU SME BATU KAWAN 33/11KV,TNB,DISTRIBUTION,PPU 33/11kV (Cable Tie),33/11 kV,SMEBK,PNTL/PPU/G00003,NIBONG TEBAL,PPU,Insert,5.221284467,100.4443049
50169148,Existing,SSU SOLARTECH 33KV,TNB,DISTRIBUTION,SSU SINGLE BUS + BUS SECTION 33 kV,33 kV,STCH,PBUT/SSU/G00020,SEBERANG JAYA,SSU,Insert,5.294716487,100.4400705
50169837,Existing,SSU HP BATU KAWAN 33KV,TNB,DISTRIBUTION,SSU SINGLE BUS + BUS SECTION 33 kV,33 kV,HPKD,PNTL/SSU/G00008,NIBONG TEBAL,SSU,Insert,5.2275281,100.450963
50170053,Existing,PPU PENANG SCIENCE PARK 33/11KV,TNB,DISTRIBUTION,PPU 33/11kV (Cable Tie),33/11 kV,PSPK,PBUT/PPU/G00035,SEBERANG JAYA,PPU,Insert,5.289999108,100.4435955
50170932,Existing,MINI PPU PENAGA 33/11KV,TNB,DISTRIBUTION,PPU Mini,33/11 kV,PENAGA,PBTM/MPU/G00001,BERTAM,PPU,Insert,5.538117441,100.3815068
50171087,Existing,MINI PPU KAMPUNG SELAMAT 33/11KV,TNB,DISTRIBUTION,PPU Mini,33/11 kV,SLMT,PBTM/MPU/G00002,BERTAM,PPU,Insert,5.486854809,100.5024534
50251317,Existing,PMU AMANJAYA 132/11KV,TNB,DISTRIBUTION,PMU 132/11 kV,132/11 kV,AJYA11,KSGP/PMU/G00006,SUNGAI PETANI,PMU,Update,5.697129202,100.5233146
50252261,Existing,PMU BEDONG 132/33KV,TNB,DISTRIBUTION,PMU 132/33/11 kV (SINGLE BUS),132/33/11,BDNG,KSGP/PMU/G00007,SUNGAI PETANI,PMU,Insert,5.721851357,100.5002087
50282887,Existing,SSU DAHLIA CEMERLANG (JINKO SOLAR) 33KV,TNB,DISTRIBUTION,SSU SINGLE BUS + BUS SECTION 33 kV,33 kV,JNKO,PBUT/SSU/G00023,SEBERANG JAYA,SSU,Insert,5.354375315,100.3942513
50283219,Existing,SSU MAK SULONG 33KV,TNB,DISTRIBUTION,SSU SINGLE BUS + BUS SECTION 33 kV,33 kV,MSLG,PBUT/SSU/G00022,SEBERANG JAYA,SSU,Insert,5.431583766,100.4782378
50283573,Existing,MINI PPU RMH PAM PINANG TUNGGAL 33/11KV,TNB,DISTRIBUTION,PPU 33/11kV (SINGLE BUS),33/11 kV,PTGL,PBTM/MPU/G00005,BERTAM,PPU,Insert,5.556257287,100.505786
50285615,Existing,PPU KUALA NERANG,TNB,DISTRIBUTION,PPU 33/11kV (SINGLE BUS),33/11 kV,KNRG,KKNG/PPU/G00001,KUALA NERANG,PPU,Insert,6.272085862,100.6162624
50334785,Existing,PMU A.SETAR GIS 132/33kV,TNB,DISTRIBUTION,PMU 132/33kV (DOUBLE BUS),132/33 kV,ASTR,KALS/PMU/G00002,ALOR SETAR,PMU,Insert,6.128081544,100.3654506
50335621,Existing,PMU GUTHRIE 33kV,TNB,DISTRIBUTION,PMU 132/33kV (DOUBLE BUS),132/33 kV,GTHR,KKLM/PMU/G00003,KULIM,PMU,Insert,5.479299775,100.5932119
50336340,Existing,PMU BUKIT KAYU HITAM,TNB,DISTRIBUTION,PMU 132/11 kV,132/33 & 132/11,BKHM11,KJIT/PMU/G00002,JITRA,PMU,Update,6.480201705,100.4158244
50338178,Existing,PMU TANJUNG PAUH 132/33,TNB,DISTRIBUTION,PMU 132/33/11 kV (SINGLE BUS),132/33 kV,PAUH33,KJIT/PMU/G00001,JITRA,PMU,Insert,6.234789207,100.4209437
50416373,Existing,PMU BALING,TNB,DISTRIBUTION,PMU 132/33/11 kV (SINGLE BUS),132/33 & 132/11,BLIN,KBLG/PMU/G00001,BALING,PMU,Insert,5.694666231,100.9167973
50417300,Existing,PMU KULIM 132/33/11kV,TNB,DISTRIBUTION,PMU 132/33/11 kV (DOUBLE BUS),132/33/11,KLIM,KKLM/PMU/G00002,KULIM,PMU,Insert,5.40570768,100.5534505
50418735,Existing,PMU GURUN 132/11KV,TNB,DISTRIBUTION,PMU 132/11 kV,132/11 kV,GRUN,KGCM/PMU/J00001,GUAR CHEMPEDAK,PMU,Insert,5.822460935,100.4680224
50419063,Existing,PMU KOTA SARANG SEMUT 132/11KV,TNB,DISTRIBUTION,PMU 132/33/11 kV (DOUBLE BUS),132/11 kV,KSSM11,KGCM/PMU/J00002,GUAR CHEMPEDAK,PMU,Insert,5.928149003,100.408626
50435138,Existing,PMU TANJUNG PAUH 132/11KV,TNB,DISTRIBUTION,PMU 132/33/11 kV (SINGLE BUS),132/11 kV,PAUH11,KJIT/PMU/J00001,JITRA,PMU,Insert,6.234160885,100.4208925
50510972,Existing,PMU TELUK EWA,TNB,DISTRIBUTION,PMU 132/33/11 kV (SINGLE BUS),132/33 kV,TEWA,KLGK/PMU/G00001,LANGKAWI,PMU,Insert,6.422694263,99.76784773
50512448,Existing,PMU GURUN EAST 275/132/33KV,TNB,DISTRIBUTION,PMU 132/33kV (DOUBLE BUS),132/33 kV,GRNE,KGCM/PMU/G00001,GUAR CHEMPEDAK,PMU,Insert,5.808639572,100.5319592
50513223,Existing,PMU KUALA KETIL 132/11kV,TNB,DISTRIBUTION,PMU 132/33/11 kV (DOUBLE BUS),132/11 kV,KKTL,KKLM/PMU/J00001,KULIM,PMU,Insert,5.591503559,100.6361544
50517494,Existing,PPU PADANG SANAI (MINI),TNB,DISTRIBUTION,PPU Mini,33/11 KV,LAPS,KKNG/PPU/G00004,KUALA NERANG,PPU,Insert,6.346559614,100.6791943
50575127,Existing,PMU TIKAM BATU 132/33KV,TNB,DISTRIBUTION,PMU 132/33/11 kV (DOUBLE BUS),132/33/11,TKBU,KSGP/PMU/G00002,SUNGAI PETANI,PMU,Insert,5.577263376,100.44198
50578071,Existing,PPU KULIM INDUSTRI,TNB,DISTRIBUTION,PPU 33/11kV (Cable Tie),33/11 kV,KKLID,KKLM/PPU/G00003,KULIM,PPU,Insert,5.409777775,100.5621068
50669666,Existing,PPU MEMALI (MINI),TNB,DISTRIBUTION,PPU 33/11kV (Cable Tie),33/11 KV,MMLI,KBLG/PPU/G00002,BALING,PPU,Insert,5.819229582,100.8786289
50669939,Existing,PPU KUALA KETIL,TNB,DISTRIBUTION,PPU 33/11kV (Cable Tie),33/11 kV,KTL2,KKLM/PPU/G00001,KULIM,PPU,Insert,5.604234348,100.6395486
50670477,Existing,PPU PDG TEMUSU,TNB,DISTRIBUTION,PPU 33/11kV (SINGLE BUS),33/11 kV,PTSU,KSGP/PPU/G00009,SUNGAI PETANI,PPU,Insert,5.595592046,100.474781
50671248,Existing,PPU SERDANG,TNB,DISTRIBUTION,PPU 33/11kV (Cable Tie),33/11 kV,SDNG,KBBU/PPU/G00001,BANDAR BAHARU,PPU,Insert,5.208444441,100.6155278
50671736,Existing,PPU BUKIT RAYA,TNB,DISTRIBUTION,PPU 33/11kV (SINGLE BUS),33/11 kV,BRYA,KPDG/PPU/G00007,PENDANG,PPU,Update,6.029942969,100.4501236
50672678,Existing,PPU PENDANG,TNB,DISTRIBUTION,PPU 33/11kV (Cable Tie),33/11 kV,PNDG,KPDG/PPU/G00001,PENDANG,PPU,Insert,5.995888443,100.477288
50673136,Existing,PPU WISMA TNB,TNB,DISTRIBUTION,PPU 33/11kV (SINGLE BUS),33/11 kV,WTNB,KALS/PPU/G00006,ALOR SETAR,PPU,Insert,6.121463004,100.372908
50768495,Existing,PPU PELUBANG,TNB,DISTRIBUTION,PPU 33/11kV (Cable Tie),33/11 kV,PLBG,KJIT/PPU/G00001,JITRA,PPU,Insert,6.220393715,100.4624382
50768927,Existing,PPU HOSPITAL BARU,TNB,DISTRIBUTION,PPU 33/11kV (SINGLE BUS),33/11 kV,HBAS,KALS/PPU/G00005,ALOR SETAR,PPU,Insert,6.149702545,100.4082325
50769817,Existing,PPU BANDAR MUADZAM,TNB,DISTRIBUTION,PPU 33/11kV (SINGLE BUS),33/11 kV,MUAZ,KALS/PPU/G00008,ALOR SETAR,PPU,Insert,6.182386673,100.3767198
50770753,Existing,PPU BANDAR DARULAMAN,TNB,DISTRIBUTION,PPU 33/11kV (SINGLE BUS),33/11 kV,DMAN,KJIT/PPU/G00008,JITRA,PPU,Insert,6.250345437,100.4273747
50771751,Existing,PPU SIMPANG JERLUN,TNB,DISTRIBUTION,PPU 33/11kV (SINGLE BUS),33/11 kV,JRLN,KJIT/PPU/G00002,JITRA,PPU,Insert,6.227907999,100.261065
50841056,Existing,PPU KODIANG,TNB,DISTRIBUTION,PPU 33/11kV (SINGLE BUS),33/11 kV,KODG,KJIT/PPU/G00005,JITRA,PPU,Insert,6.391790538,100.3039969
50841441,Existing,PPU CHANGLUN,TNB,DISTRIBUTION,PPU 33/11kV (Cable Tie),33/11 kV,CGLN,KJIT/PPU/G00003,JITRA,PPU,Insert,6.434222187,100.4382177
50841836,Existing,PPU SG KARANGAN,TNB,DISTRIBUTION,PPU 33/11kV (SINGLE BUS),33/11 kV,SKGN,KKLM/PPU/G00005,KULIM,PPU,Insert,5.525492036,100.6081723
50842663,Existing,PPU MERGONG INDUSTRI,TNB,DISTRIBUTION,PPU 33/11kV (SINGLE BUS),33/11 kV,MGIN,KALS/PPU/G00010,ALOR SETAR,PPU,Insert,6.126932875,100.3428147
50843605,Existing,PPU BUKIT BAYAN,TNB,DISTRIBUTION,PPU 33/11kV (Cable Tie),33/11 kV,BYAN,KSGP/PPU/G00012,SUNGAI PETANI,PPU,Insert,5.665071,100.536643
50844367,Existing,PPU TAMAN MAKMUR,TNB,DISTRIBUTION,PPU 33/11kV (SINGLE BUS),33/11 kV,TMUR,KKLM/PPU/G00002,KULIM,PPU,Insert,5.449329148,100.5419963
50845221,Existing,PPU UUM SINTOK,TNB,DISTRIBUTION,PPU 33/11kV (SINGLE BUS),33/11 kV,UUM,KJIT/PPU/G00004,JITRA,PPU,Insert,6.466792997,100.49439
50944530,Existing,PPU SERUKAM,TNB,DISTRIBUTION,PPU 33/11kV (SINGLE BUS),33/11 kV,SRKM,KSGP/PPU/G00002,SUNGAI PETANI,PPU,Insert,5.602350996,100.504097
50945405,Existing,PPU PINANG TUNGGAL,TNB,DISTRIBUTION,PPU 33/11kV (Cable Tie),33/11 kV,PPGL,KSGP/PPU/G00010,SUNGAI PETANI,PPU,Insert,5.568404124,100.5021106
50945889,Existing,PPU AIRPORT,TNB,DISTRIBUTION,PPU 33/11kV (Cable Tie),33/11 kV,APRT,KLGK/PPU/G00005,LANGKAWI,PPU,Update,6.341236016,99.72377411
50946721,Existing,PPU KUAH,TNB,DISTRIBUTION,PPU 33/11kV (Cable Tie),33/11 kV,KUAH,KLGK/PPU/G00001,LANGKAWI,PPU,Insert,6.330047788,99.847235
50947478,Existing,PPU CHANDEKURA,TNB,DISTRIBUTION,PPU 33/11kV (SINGLE BUS),33/11 kV,CNKR,KLGK/PPU/G00004,LANGKAWI,PPU,Insert,6.332829001,99.747346
50948079,Existing,PPU LICC,TNB,DISTRIBUTION,PPU 33/11kV (Cable Tie),33/11 kV,LICC,KLGK/PPU/G00007,LANGKAWI,PPU,Insert,6.302051973,99.85734535
51034721,Existing,PPU KEPALA BATAS,TNB,DISTRIBUTION,PPU 33/11kV (Cable Tie),33/11 kV,KBT2,KALS/PPU/G00002,ALOR SETAR,PPU,Insert,6.206379787,100.4133701
51035322,Existing,PPU KUIN,TNB,DISTRIBUTION,PPU 33/11kV (SINGLE BUS),33/11 kV,KUIN,KKLM/PPU/G00008,KULIM,PPU,Insert,5.589554108,100.6435285
51036264,Inactive,PPU MERGONG BARRAGE,TNB,DISTRIBUTION,PPU 33/11kV (Cable Tie),33/11 kV,MRBG,KALS/PPU/G00004,ALOR SETAR,PPU,Update,6.120003966,100.3448348
51036891,Existing,PPU SG TIANG,TNB,DISTRIBUTION,PPU 33/11kV (SINGLE BUS),33/11 kV,STNG,KPDG/PPU/G00002,PENDANG,PPU,Update,6.011479363,100.6148215
51037833,Existing,PPU LOJI AIR PENDANG,TNB,DISTRIBUTION,PPU 33/11kV (SINGLE BUS),33/11 kV,LAPG,KPDG/PPU/G00006,PENDANG,PPU,Insert,5.913171956,100.4896539
51221012,Existing,PPU PANTAI TENGAH (MINI),TNB,DISTRIBUTION,PPU 33/11kV (SINGLE BUS),,PTGH,KLGK/PPU/G00009,LANGKAWI,PPU,Insert,6.278143929,99.73503309
51221616,Existing,PPU PENANG WORLD CITY 33/11KV,TNB,DISTRIBUTION,PPU 33/11kV (Cable Tie),33/11 kV,PWCT,PPPG/PPU/G00045,PULAU PINANG,PPU,Insert,5.342524106,100.3098612
51294553,Existing,PPU BUKIT MINYAK UTARA,TNB,DISTRIBUTION,PPU 33/11kV (Cable Tie),33/11 kV,BMUT,PBMT/PPU/G00008,SEBERANG JAYA,PPU,Insert,5.313456533,100.4476098
51357557,Existing,SSU TORAY 2,TNB,DISTRIBUTION,SSU SINGLE BUS + BUS SECTION 33 kV,33 kV,TRY2,PBUT/SSU/G00026,SEBERANG JAYA,SSU,Insert,5.365370646,100.3818701
51357773,Existing,SSU TPC 33KV,TNB,DISTRIBUTION,SSU SINGLE BUS + BUS SECTION 33 kV,33 kV,STPC,PPPG/SSU/G00025,PULAU PINANG,SSU,Insert,5.321898721,100.295956
51357989,Existing,SSU ROBERT BOSCH 33KV,TNB,DISTRIBUTION,SSU SINGLE BUS + BUS SECTION 33 kV,33 kV,BOSH,PPPG/SSU/G00026,PULAU PINANG,SSU,Insert,5.311770654,100.2873046
51358341,Inactive,SSU MIRCON,TNB,DISTRIBUTION,SSU SINGLE BUS + BUS SECTION 33 kV,33 kV,MRON,PNTL/SSU/G00010,NIBONG TEBAL,SSU,Update,5.217670741,100.4478776
51359300,Existing,SSU LAM RESEARCH 33KV,TNB,DISTRIBUTION,SSU SINGLE BUS + BUS SECTION 33 kV,33 kV,LAMR,PNTL/SSU/G00012,NIBONG TEBAL,SSU,Insert,5.22851223,100.4522501
51359842,Existing,PPU SIERRA RESIDENCE,TNB,DISTRIBUTION,PPU 33/11kV (Cable Tie),33/11 kV,SIRA,PBYB/PPU/G00008,BAYAN BARU,PPU,Insert,5.334552193,100.2703256
51449400,Existing,MINI PPU A1 RUBBER,TNB,DISTRIBUTION,PPU 33/11kV (Cable Tie),33/11 KV,A1RB,KBLG/PPU/G00003,BALING,PPU,Insert,5.579456838,100.7917381
51512189,Existing,PPU LPN KERPAN,TNB,DISTRIBUTION,PPU Mini,33/0.415 kV,KRPN,KJIT/PPU/G00006,JITRA,PPU,Update,6.260487335,100.2309348
51512343,Existing,PPU BINA KUARI,TNB,DISTRIBUTION,PPU 33/11kV (Cable Tie),33/11 kV,BINA,KPDG/PPU/G00003,PENDANG,PPU,Insert,5.953612265,100.604462
51512429,Existing,MINI PPU JUNJUNG,TNB,DISTRIBUTION,PPU Mini,,JNJG,KKLM/PPU/G00013,KULIM,PPU,Insert,5.277840597,100.5478923
51512619,Existing,PPU MBI DESAKU 33/11kV,TNB,DISTRIBUTION,PPU 33/11kV (Cable Tie),33/11 kV,MBID,KKLM/PPU/G00011,KULIM,PPU,Insert,5.516084761,100.6207736
51581263,Existing,SSU ISLAND HOSPITAL 33KV,TNB,DISTRIBUTION,SSU SINGLE BUS + BUS SECTION 33 kV,33 kV,ISLD,PPPG/SSU/G00027,PULAU PINANG,SSU,Update,5.424494938,100.314545
51651434,Existing,,TNB,DISTRIBUTION,SSU SINGLE BUS + BUS SECTION 33 kV,,HTCI,,PULAU PINANG,SSU,Insert,5.312244659,100.2831283
51652307,Existing,PPU KOMTAR 33/11KV,TNB,DISTRIBUTION,PPU 33/11kV (Cable Tie),33/11 kV,KTAR,PPPG/PPU/G00015,PULAU PINANG,PPU,Insert,5.414749873,100.330458
51721676,Existing,PMU TANJONG TOKONG 132/33KV,TNB,DISTRIBUTION,PMU 132/33kV (SINGLE BUS),132/33 kV,TGTK,PPPG/PMU/G00009,PULAU PINANG,PMU,Insert,5.455939281,100.3100577
56702968,Existing,MINI PPU KG LANJUT,TNB,DISTRIBUTION,PPU Mini,,KKLJT,KALS/PPU/G00012,ALOR SETAR,PPU,Update,6.165932205,100.4855836
56824372,Existing,PMU KOTA SARANG SEMUT 132/33kV,TNB,DISTRIBUTION,PMU 132/33/11 kV (DOUBLE BUS),132/33/11,KSSM,KGCM/PMU/G00002,GUAR CHEMPEDAK,PMU,Insert,5.928260366,100.4089214
57121091,Existing,PMU MERGONG 132/11kV,TNB,DISTRIBUTION,PMU 132/11 kV,132/11 kV,MGON11,KALS/PMU/J00001,ALOR SETAR,PMU,Insert,6.151747154,100.359987
57214588,Existing,PMU MERGONG 132/33KV,TNB,DISTRIBUTION,PMU 132/33kV (DOUBLE BUS),132/33/11,MGON33,KALS/PMU/G00003,ALOR SETAR,PMU,Insert,6.151996198,100.3602689
57676775,Existing,PMU KOTA SETAR 132/33kV,TNB,DISTRIBUTION,PMU 132/33/11 kV (DOUBLE BUS),132/33 kV,KSTR,KALS/PMU/G00001,ALOR SETAR,PMU,Update,6.087847242,100.3559386
57848388,Existing,PPU JABI,TNB,DISTRIBUTION,PPU 33/11kV (Cable Tie),33/11 kV,JABIK,KALS/PPU/G00015,ALOR SETAR,PPU,Insert,6.161087859,100.5003292
57914641,Existing,PPU TAMAN NURI,TNB,DISTRIBUTION,PPU 33/11kV (DOUBLE BUS),33/11 kV,TNRI,KALS/PPU/G00001,ALOR SETAR,PPU,Insert,6.126408628,100.3940118
57915843,Existing,PPU AL BUKHARY,TNB,DISTRIBUTION,PPU 33/11kV (SINGLE BUS),33/11 kV,BKRY,KALS/PPU/G00009,ALOR SETAR,PPU,Insert,6.129713892,100.3841181
57916893,Existing,SSU SIME TYRE,TNB,DISTRIBUTION,SSU DOUBLE BUS 33 kV,33 kV,SIME,KALS/SSU/G00001,ALOR SETAR,SSU,Insert,6.121615753,100.3462003
57917160,Existing,MINI PPU TAMAN BERSATU,TNB,DISTRIBUTION,PPU 33/11kV (SINGLE BUS),,TBTU,KALS/PPU/G00017,ALOR SETAR,PPU,Update,6.044890196,100.3819081
57917284,Existing,PPU SPID (MOBILE),TNB,DISTRIBUTION,PPU 33/11kV (SINGLE BUS),33/11 kV,MSPID,KSGP/PMU/G00010,SUNGAI PETANI,PPU,Insert,5.659985769,100.5344212
58037910,Existing,PPU PEKULA (MINI),TNB,DISTRIBUTION,PPU PENURUN MV Fuse - RMU,33/11 KV,PPHS,KSGP/PPU/G00013,SUNGAI PETANI,PPU,Insert,5.566639509,100.4320509
58615995,Existing,PPU SIMPANG ABI (MINI),TNB,DISTRIBUTION,PPU Mini,33/11 kV,ABI,RKAN/PPU/G00015,KANGAR,PPU,Insert,6.510488368,100.1775749
58801793,Existing,PMU TASEK GELUGOR 132/33KV,TNB,DISTRIBUTION,PMU 132/33kV (SINGLE BUS),132/33 kV,TGSS,PBTM/PMU/G00001,BERTAM,PMU,Insert,5.489004881,100.5066518
58868078,Existing,PMU JENIANG,TNB,DISTRIBUTION,PMU 132/33/11 kV (SINGLE BUS),132/33/11,JENG,KSIK/PMU/G00001,SIK,PMU,Insert,5.819259712,100.6479766
80220510,Existing,PMU BATU KAWAN SOUTH 132/33/11KV,TNB,DISTRIBUTION,PMU 132/33/11 kV (SINGLE BUS),132/33 kV,BKWS,PNTL/PMU/G00003,NIBONG TEBAL,PMU,Update,5.226299815,100.4566949
81686504,Abandoned,,TNB,DISTRIBUTION,PMU 132/11 kV,,SPTN,,SUNGAI PETANI,PMU,Update,5.63909292,100.485615
